,county,state,lat,lon
44,Suffolk,Massachusetts,42.33390356774295,-71.07309943773133
411,Hillsborough,Florida,27.92935634513101,-82.3087876698058
412,Manatee,Florida,27.471888671473295,-82.31528027327596
416,New York City,New York,40.66,-73.94
441,Fulton,Georgia,33.790280958041656,-84.46700029157839
443,Norfolk,Massachusetts,42.15580442488898,-71.22298781714066
446,Grafton,New Hampshire,43.940655688300296,-71.82076594184655
481,Wake,North Carolina,35.790260136895405,-78.65031446159473
514,Bergen,New Jersey,40.95963206226482,-74.07423270294231
516,Westchester,New York,41.16241856912791,-73.75605731859136
548,Santa Rosa,Florida,30.70044735227693,-87.02198240301865
551,Montgomery,Maryland,39.13634177756632,-77.20418495788212
552,Middlesex,Massachusetts,42.485587466532,-71.39179000960075
560,Nassau,New York,40.73280387763638,-73.5864086590998
599,Broward,Florida,26.15232170181964,-80.4871127783897
601,Lee,Florida,26.579121081591435,-81.81996540170121
605,Polk,Georgia,34.00179797152895,-85.18814686678084
620,Camden,New Jersey,39.803525700569466,-74.95975372723746
623,Rockland,New York,41.15238484003475,-74.02405398528614
625,Chatham,North Carolina,35.70258165673865,-79.2552973934949
629,Delaware,Pennsylvania,39.91670671779325,-75.39908736741675
630,Wayne,Pennsylvania,41.64874114264733,-75.30327031172394
631,Charleston,South Carolina,32.83475491564341,-79.95305377596934
632,Kershaw,South Carolina,34.33877402713653,-80.59023404891661
678,Charlotte,Florida,26.905502725767025,-81.91226002932852
682,Okaloosa,Florida,30.69129732843312,-86.59175967998019
684,Volusia,Florida,29.05842439034989,-81.18192653142658
685,Cobb,Georgia,33.94146806274376,-84.5766832110363
687,Gwinnett,Georgia,33.961735293915254,-84.02360174215254
695,Berkshire,Massachusetts,42.37071144400915,-73.20634904978223
705,Rockingham,New Hampshire,42.98758595012211,-71.1254408129143
711,Saratoga,New York,43.10738859125158,-73.86389930042077
720,Montgomery,Pennsylvania,40.21083604796135,-75.3672810347782
732,Fairfax,Virginia,38.83711937824308,-77.27734192458651
770,Fairfield,Connecticut,41.27110205243782,-73.38917932983797
780,Cherokee,Georgia,34.243952828973775,-84.47621098002885
794,Harford,Maryland,39.56131259013112,-76.31710824109932
800,Worcester,Massachusetts,42.35143109729856,-71.90774609105091
811,Passaic,New Jersey,41.03446085072499,-74.30084177950283
816,Suffolk,New York,40.86546056216492,-72.85272469298751
817,Ulster,New York,41.88814952893891,-74.25855890593618
832,Spartanburg,South Carolina,34.93126700919744,-81.99068275406107
898,DeKalb,Georgia,33.77155067232527,-84.22642832762257
899,Fayette,Georgia,33.41395730662755,-84.49418480279441
900,Floyd,Georgia,34.26319805490673,-85.21426098697934
918,Prince George's,Maryland,38.82953372879893,-76.8472824721449
934,Hudson,New Jersey,40.734979236961074,-74.07775467247424
935,Monmouth,New Jersey,40.26048969846016,-74.22097242437847
937,Union,New Jersey,40.660032137239504,-74.30850914600595
955,Monroe,Pennsylvania,41.05806322744271,-75.33946481822404
973,Virginia Beach city,Virginia,36.73354378431692,-76.04348590862497
1022,Alachua,Florida,29.674757216444668,-82.35772834033932
1025,Collier,Florida,26.110719046235257,-81.34757402694645
1029,Nassau,Florida,30.61060481053839,-81.80161906554672
1031,Pasco,Florida,28.30930795113269,-82.3923796272205
1032,Pinellas,Florida,27.91929510255517,-82.72536698531836
1035,Charlton,Georgia,30.781729806865464,-82.1379397809248
1065,Essex,Massachusetts,42.67320009687074,-70.95218620389406
1082,Burlington,New Jersey,39.87769214336262,-74.66804171016712
1108,Philadelphia,Pennsylvania,40.00762660889816,-75.13398581413875
1134,Loudoun,Virginia,39.09066728598416,-77.6357395483394
1188,New Castle,Delaware,39.57675791323904,-75.65296409157526
1197,Miami-Dade,Florida,25.615880554200643,-80.56371485428095
1203,St. Johns,Florida,29.901649160514303,-81.44067155002612
1205,Bartow,Georgia,34.23785753318765,-84.84049254315426
1214,Lee,Georgia,31.779617474091115,-84.14100186978727
1215,Lowndes,Georgia,30.833819292046616,-83.26773400259151
1239,Baltimore,Maryland,39.46342507754503,-76.6401967393095
1266,Middlesex,New Jersey,40.43916349555536,-74.411699009158
1273,Monroe,New York,43.146454292624135,-77.69609238061427
1297,Bucks,Pennsylvania,40.336876121917946,-75.1067869198385
1305,Lancaster,South Carolina,34.68670090817808,-80.70542989743352
1330,Arlington,Virginia,38.87861513996035,-77.1011016943769
1395,Litchfield,Connecticut,41.79248804097912,-73.24533261019486
1401,Clay,Florida,29.98307538783171,-81.85788646934681
1403,Duval,Florida,30.331579108301305,-81.67084623149174
1410,Palm Beach,Florida,26.647608850506955,-80.46548359780994
1414,Sarasota,Florida,27.184471654806813,-82.33150488157038
1415,Seminole,Florida,28.71697969882426,-81.23630140979003
1455,Androscoggin,Maine,44.16579916910862,-70.2064726362804
1493,Essex,New Jersey,40.78722647878136,-74.24700920786735
1497,Morris,New Jersey,40.86199332993444,-74.5445083211191
1503,Albany,New York,42.60018537017708,-73.97355697953981
1504,Delaware,New York,42.19807775910528,-74.96647096656675
1505,Dutchess,New York,41.76515511713615,-73.74286139034281
1506,Herkimer,New York,43.41971841877099,-74.96252575786086
1510,Orange,New York,41.40214153801445,-74.30554519230233
1516,Cabarrus,North Carolina,35.386794392027234,-80.55186462589947
1518,Forsyth,North Carolina,36.13062805196508,-80.25629747044275
1519,Johnston,North Carolina,35.51783082685436,-78.36571146409815
1520,Mecklenburg,North Carolina,35.24642570985743,-80.83262693740001
1521,Onslow,North Carolina,34.73239700114389,-77.43277900618736
1543,Northampton,Pennsylvania,40.7542294278302,-75.30740116165964
1545,Pike,Pennsylvania,41.332000542704826,-75.03383508076456
1575,Alexandria city,Virginia,38.81842362231292,-77.08609715373639
1578,Hanover,Virginia,37.76014741432139,-77.49086903938324
1579,James City,Virginia,37.328794009288046,-76.77871048520933
1581,Prince Edward,Virginia,37.22430173191116,-78.44107665307438
1582,Prince William,Virginia,38.70476624421989,-77.48085431708853
1674,Orange,Florida,28.51443253293964,-81.32352015626083
1675,Osceola,Florida,28.062684378382077,-81.1494788015105
1692,Gordon,Georgia,34.50336331571565,-84.87570609720672
1694,Henry,Georgia,33.45300490564221,-84.15420345471526
1730,Cumberland,Maine,43.84859481778601,-70.40361733126008
1731,Anne Arundel,Maryland,39.00647368900904,-76.60507070759651
1733,Charles,Maryland,38.50730181552967,-76.99216467899797
1788,Ocean,New Jersey,39.885133286071415,-74.28090841268953
1804,Schenectady,New York,42.81813596361548,-74.05857311935986
1815,Wayne,North Carolina,35.363970438905106,-78.0039988867299
1834,Chester,Pennsylvania,39.97310346698168,-75.74847836323507
1835,Cumberland,Pennsylvania,40.16363445589757,-77.26553507336367
1842,Washington,Pennsylvania,40.18939985306828,-80.24823258199129
1885,Harrisonburg city,Virginia,38.43617151107404,-78.87351267016025
1976,Hartford,Connecticut,41.80640958006048,-72.73287561312513
1978,New Haven,Connecticut,41.41046457157572,-72.93216692554985
2007,Coweta,Georgia,33.353470349213886,-84.76335698849954
2070,Carroll,Maryland,39.56289121079433,-77.02254837669554
2075,Barnstable,Massachusetts,41.72418718714459,-70.29149072493901
2077,Bristol,Massachusetts,41.797453975835786,-71.11477021713962
2128,Mercer,New Jersey,40.28345210687791,-74.70175319247463
2140,Broome,New York,42.16025840828896,-75.8196242553319
2152,Tioga,New York,42.17034279292658,-76.30635340275853
2153,Tompkins,New York,42.4520353556339,-76.4736398340745
2156,Brunswick,North Carolina,34.07109551764617,-78.23760454448316
2159,Craven,North Carolina,35.12487271707718,-77.09389620204688
2161,Harnett,North Carolina,35.3686390393529,-78.86941812910828
2191,Allegheny,Pennsylvania,40.46883654009484,-79.98119702623994
2203,Beaufort,South Carolina,32.385559028787455,-80.73018313027478
2207,Lexington,South Carolina,33.90232939620947,-81.27220435108455
2250,Chesterfield,Virginia,37.37854122813904,-77.58696480143836
2258,Spotsylvania,Virginia,38.1850418253838,-77.65600857602631
2360,Baker,Florida,30.33110366123715,-82.28463195805557
2363,Citrus,Florida,28.849081421904508,-82.47864916174781
2386,Clarke,Georgia,33.951179188723614,-83.3673392291364
2387,Clayton,Georgia,33.54189323345039,-84.35764728816129
2391,Dougherty,Georgia,31.53346540941691,-84.21637106375796
2400,Newton,Georgia,33.555041404904266,-83.85019092935396
2461,Lincoln,Maine,44.06802802973987,-69.54415948049039
2464,Baltimore city,Maryland,39.30508795971726,-76.61444497638686
2468,Howard,Maryland,39.25073092591408,-76.93119133065956
2475,Hampden,Massachusetts,42.13510773256191,-72.63158869352391
2478,Plymouth,Massachusetts,41.950809023850354,-70.81129224364653
2524,Hillsborough,New Hampshire,42.9153416126458,-71.71608305837127
2546,Erie,New York,42.7639610485089,-78.73231819733367
2547,Greene,New York,42.27652222353223,-74.12272256671656
2550,Montgomery,New York,42.90230046457773,-74.43971743092428
2554,Putnam,New York,41.42667122168871,-73.749481819259
2573,Watauga,North Carolina,36.23110247549213,-81.69643877925358
2575,Wilson,North Carolina,35.70515252704314,-77.91867351474282
2611,Lehigh,Pennsylvania,40.61271437837152,-75.59232934905054
2612,Luzerne,Pennsylvania,41.17702870511125,-75.98901344648795
2620,Anderson,South Carolina,34.51910493049556,-82.63789118470318
2623,Greenville,South Carolina,34.894384685004994,-82.37071507855632
2624,Horry,South Carolina,33.92142486244512,-78.99656369550999
2797,Escambia,Florida,30.668932284584116,-87.3627878913973
2799,Lake,Florida,28.76154967395049,-81.7112564949174
2826,Forsyth,Georgia,34.22554979016303,-84.12502456762358
2830,Hall,Georgia,34.3169031838319,-83.81967134390078
2835,Paulding,Georgia,33.920545467140414,-84.86728364044066
2837,Troup,Georgia,33.033530589891186,-85.02834896141438
2908,Frederick,Maryland,39.47223828047753,-77.39800904764644
2913,Talbot,Maryland,38.77144446983922,-76.09474808625941
2971,Carroll,New Hampshire,43.87382150953746,-71.20309603875978
2980,Hunterdon,New Jersey,40.56729713649931,-74.91226491597396
2987,Somerset,New Jersey,40.56349785286845,-74.61635156855289
2994,Allegany,New York,42.25741149004413,-78.02758907825604
3005,Onondaga,New York,43.005821281706886,-76.19463911700933
3006,Ontario,New York,42.85285711922692,-77.29982237053609
3021,Durham,North Carolina,36.0360386477096,-78.87662204425209
3081,Fairfield,South Carolina,34.39510439587368,-81.12123541512887
3146,Stafford,Virginia,38.42070043031285,-77.45804712508706
3148,York,Virginia,37.24312103411721,-76.56353018584879
3263,Sussex,Delaware,38.66056015226545,-75.39003971207418
3267,Brevard,Florida,28.29372882440304,-80.73227566748403
3287,Polk,Florida,27.94888730013521,-81.69758385086715
3315,Richmond,Georgia,33.359602299781294,-82.07351213341146
3317,Whitfield,Georgia,34.80561675648046,-84.9672123097673
3393,Kennebec,Maine,44.40911967167797,-69.76733778920907
3395,Oxford,Maine,44.49988076272669,-70.75660641022452
3396,York,Maine,43.47843470319466,-70.71442074312785
3484,Gloucester,New Jersey,39.71726268758347,-75.14141608176472
3495,Warren,New Jersey,40.857134766048354,-74.99727724471094
3504,Clinton,New York,44.74618898998894,-73.6781654515424
3518,Rensselaer,New York,42.711087261850736,-73.50971957316223
3523,Sullivan,New York,41.7164333742138,-74.76811954155431
3528,Wyoming,New York,42.70237634592367,-78.22445805750914
3536,Iredell,North Carolina,35.806709460534385,-80.87349783107017
3540,Sampson,North Carolina,34.99155711142878,-78.37139067229019
3587,Beaver,Pennsylvania,40.6822638917926,-80.34929913921485
3603,Calhoun,South Carolina,33.67488821219264,-80.78030023126752
3611,Richland,South Carolina,34.02182663675267,-80.90305658567492
3613,York,South Carolina,34.97475084873054,-81.18441475063383
3666,Charlottesville city,Virginia,38.03736706215328,-78.48557040952461
3669,Goochland,Virginia,37.72207263817959,-77.91652752476735
3672,Henrico,Virginia,37.53800277233661,-77.4058263898611
3680,Williamsburg city,Virginia,37.26911218077431,-76.70753353937833
3809,Middlesex,Connecticut,41.46319466054719,-72.5351452843774
3811,Kent,Delaware,39.086173437537234,-75.56842277388509
3828,Leon,Florida,30.458048501389825,-84.27789594373296
3843,Sumter,Florida,28.704752104320523,-82.0809695594942
3845,Walton,Florida,30.64358623034344,-86.1696959352209
3852,Columbia,Georgia,33.54412686895829,-82.26405321361536
3864,Houston,Georgia,32.4590132277264,-83.66623171138417
3969,Penobscot,Maine,45.40064126773549,-68.64946054168279
3986,Franklin,Massachusetts,42.5830992907166,-72.59183117053759
4061,Belknap,New Hampshire,43.51791713234523,-71.42266129363769
4065,Merrimack,New Hampshire,43.29747327472036,-71.68024087743505
4067,Atlantic,New Jersey,39.4777467604974,-74.66097803406451
4092,Chenango,New York,42.49351283775651,-75.61159392934597
4097,Essex,New York,44.117198016063774,-73.77260685742074
4099,Hamilton,New York,43.66113916570212,-74.49737805529678
4101,Jefferson,New York,44.05014624965288,-75.91801524299746
4102,Livingston,New York,42.72807066269832,-77.77549631299722
4120,Warren,New York,43.56097561609199,-73.84601831156755
4121,Washington,New York,43.31372181916944,-73.43075356920025
4130,Gaston,North Carolina,35.29439220161482,-81.18025444783508
4131,Guilford,North Carolina,36.07948046792894,-79.78890962282136
4133,Hoke,North Carolina,35.01754514213418,-79.23727035630256
4136,Lincoln,North Carolina,35.48567214947918,-81.22364965602827
4138,Moore,North Carolina,35.3106471107288,-79.48137901001782
4139,New Hanover,North Carolina,34.23272832728865,-77.88460776735873
4193,Adams,Pennsylvania,39.87150021488797,-77.2178776382755
4196,Berks,Pennsylvania,40.41630980653945,-75.92598591848889
4201,Lackawanna,Pennsylvania,41.43682713748572,-75.60920849683438
4211,York,Pennsylvania,39.919970368380426,-76.72653017510942
4221,Lee,South Carolina,34.163329834528234,-80.25449871604529
4290,Charles City,Virginia,37.35672316685466,-77.06222157395719
4302,Richmond city,Virginia,37.52944618003483,-77.47553887628142
4466,Tolland,Connecticut,41.85505162526351,-72.33649677461248
4467,Windham,Connecticut,41.8300291389128,-71.9874528550809
4482,Hernando,Florida,28.55363412605814,-82.42503269097463
4484,Indian River,Florida,27.69431703901576,-80.60624796685964
4485,Jackson,Florida,30.795430869135664,-85.21549752904701
4490,Martin,Florida,27.0775304773073,-80.43147985527695
4508,Bibb,Georgia,32.80650012125847,-83.69741063162101
4518,Early,Georgia,31.322844802462388,-84.90364522141647
4519,Effingham,Georgia,32.3672915090726,-81.34135620047324
4524,Glynn,Georgia,31.23090240357935,-81.54072006315383
4530,Laurens,Georgia,32.46365810294503,-82.92223684992163
4535,Peach,Georgia,32.56876261876707,-83.82689335347021
4538,Rockdale,Georgia,33.65425669694798,-84.02659943760816
4667,Calvert,Maryland,38.54337279128953,-76.56868220012272
4676,Wicomico,Maryland,38.37329864260253,-75.62078235023333
4683,Hampshire,Massachusetts,42.34016672131309,-72.66380202111728
4787,Cape May,New Jersey,39.14900556490926,-74.80020461874896
4799,Sussex,New Jersey,41.13925814244913,-74.69089734799309
4834,Schoharie,New York,42.58822525662599,-74.44211595002488
4842,Wayne,New York,43.15664567729124,-77.0293752124621
4931,Lancaster,Pennsylvania,40.04244154059075,-76.24773156549253
4932,Lebanon,Pennsylvania,40.36723485569937,-76.45771158823389
4942,Westmoreland,Pennsylvania,40.31073085493051,-79.46697061000856
4944,Abbeville,South Carolina,34.22255586603314,-82.45875420946479
4949,Dorchester,South Carolina,33.07949859548312,-80.40555789273033
4958,Saluda,South Carolina,34.00614123325266,-81.72690684706019
5232,New London,Connecticut,41.48662240570307,-72.10147457889745
5259,Monroe,Florida,25.50996694270424,-81.05411295297924
5277,Carroll,Georgia,33.58279281538689,-85.07977275388883
5279,Chatham,Georgia,32.00422166029372,-81.13283839463799
5286,Dawson,Georgia,34.444302174180585,-84.17062132680277
5289,Douglas,Georgia,33.70184874200337,-84.76796111830826
5300,Heard,Georgia,33.29704572856015,-85.12834047425785
5303,Lamar,Georgia,33.07654181404838,-84.13947532114375
5306,Lincoln,Georgia,33.79365020376385,-82.45115336851325
5308,Miller,Georgia,31.164009028206035,-84.73079544676756
5309,Monroe,Georgia,33.0139255251895,-83.91866271638582
5310,Muscogee,Georgia,32.51002946468144,-84.87705430407955
5312,Oconee,Georgia,33.83496760027578,-83.43710745730367
5315,Pickens,Georgia,34.46433832259509,-84.46556726156217
5317,Randolph,Georgia,31.7626564475146,-84.75420492383968
5320,Spalding,Georgia,33.26088450506576,-84.2841006062398
5321,Sumter,Georgia,32.039948055922,-84.19699249565123
5322,Terrell,Georgia,31.777010166663832,-84.43697568386382
5323,Tift,Georgia,31.457435249980463,-83.52660662022788
5325,Turner,Georgia,31.71638702256194,-83.62409818109086
5327,Worth,Georgia,31.551515077521174,-83.85089035977416
5482,Worcester,Maryland,38.21278429055522,-75.33399974755673
5607,Cheshire,New Hampshire,42.91935260326915,-72.25120887021812
5617,Cumberland,New Jersey,39.373850303260205,-75.11075729828052
5645,Columbia,New York,42.250089729143376,-73.63179810545807
5650,Fulton,New York,43.11384403058314,-74.42215823613238
5651,Genesee,New York,43.00093931671302,-78.19375953462682
5661,Niagara,New York,43.200069763831216,-78.74525183106793
5662,Oneida,New York,43.24174577393135,-75.43585142635816
5684,Carteret,North Carolina,34.83940202061163,-76.6728349606135
5687,Davidson,North Carolina,35.793362141442806,-80.21274787265087
5690,Franklin,North Carolina,36.082759449972095,-78.28570152152311
5702,Orange,North Carolina,36.06111458476605,-79.12066947402943
5703,Pasquotank,North Carolina,36.29548089765074,-76.28398889110949
5704,Pitt,North Carolina,35.5933036268666,-77.37449826812657
5705,Rowan,North Carolina,35.63948270567006,-80.52479023948881
5707,Stanly,North Carolina,35.311987634593294,-80.2509876549471
5782,Centre,Pennsylvania,40.91931964005848,-77.81995781707926
5786,Erie,Pennsylvania,41.99259860174867,-80.03281970402635
5787,Franklin,Pennsylvania,39.92741145700886,-77.72128388378565
5798,Potter,Pennsylvania,41.744935565883175,-77.89581586720492
5804,Aiken,South Carolina,33.5443304759596,-81.63475715028261
5807,Berkeley,South Carolina,33.19768570749659,-79.950997369777
5810,Clarendon,South Carolina,33.66579985112923,-80.2164209413245
5811,Darlington,South Carolina,34.33237083221914,-79.95768978523085
5814,Florence,South Carolina,34.024399783236426,-79.70280969701297
5821,Orangeburg,South Carolina,33.43900552121467,-80.80031077984657
5822,Pickens,South Carolina,34.88771601166808,-82.72520129289019
5826,Sumter,South Carolina,33.916206745242874,-80.38225837067372
5915,Accomack,Virginia,37.76343633742462,-75.63031843417828
5922,Gloucester,Virginia,37.41596734717217,-76.54343709141199
5929,Newport News city,Virginia,37.10517538541429,-76.51851716895449
5930,Norfolk city,Virginia,36.89452908302761,-76.25901521855593
5931,Portsmouth city,Virginia,36.84684630550781,-76.35404469474854
6154,Bay,Florida,30.26522180376587,-85.62025130192453
6164,Highlands,Florida,27.343327002421784,-81.34105478519827
6172,Marion,Florida,29.21020758657681,-82.05666011572372
6184,Putnam,Florida,29.608656049532584,-81.74431327242594
6189,St. Lucie,Florida,27.37726181638268,-80.47202896861228
6193,Baldwin,Georgia,33.069271580888994,-83.24955970914397
6227,Lumpkin,Georgia,34.572194467427195,-84.0026742026111
6409,Sagadahoc,Maine,43.959897891316025,-69.85461243596623
6415,Caroline,Maryland,38.87171962309026,-75.83155509541743
6423,Somerset,Maryland,38.12239505740943,-75.73390456766211
6425,Washington,Maryland,39.6036146108309,-77.81395542379586
6436,Nantucket,Massachusetts,41.282301497685445,-70.06245328521
6589,Strafford,New Hampshire,43.29696585220211,-71.02884254547901
6651,Steuben,New York,42.26781770723393,-77.38378967164395
6663,Buncombe,North Carolina,35.611218072460645,-82.53011373671242
6666,Catawba,North Carolina,35.66204989024545,-81.21508747661396
6769,Butler,Pennsylvania,40.91173841975589,-79.91299087536149
6783,Montour,Pennsylvania,41.02787252538503,-76.65858680736083
6801,Dillon,South Carolina,34.391500407210124,-79.37892379101797
6803,Edgefield,South Carolina,33.77228793350582,-81.96657259932368
6807,Greenwood,South Carolina,34.153825962776935,-82.12592518228706
6809,Jasper,South Carolina,32.43670776991656,-81.03151748979606
6814,Marlboro,South Carolina,34.60199211643858,-79.67862311508372
6815,Newberry,South Carolina,34.28981956503417,-81.60013329165828
6926,Albemarle,Virginia,38.02312280484617,-78.55556218262666
6929,Botetourt,Virginia,37.55713768008065,-79.81235004115422
6934,Franklin,Virginia,36.99194871335029,-79.88103980896854
6940,Isle of Wight,Virginia,36.89129818874445,-76.72583675872306
6943,Mecklenburg,Virginia,36.68036334523365,-78.36274764275427
6952,Suffolk city,Virginia,36.69531743481354,-76.63984443060605
7174,Bradford,Florida,29.949958002354546,-82.16877346653118
7181,Columbia,Florida,30.22425751854957,-82.62154308915927
7182,DeSoto,Florida,27.18636209202988,-81.80941658985813
7185,Flagler,Florida,29.46143906208262,-81.31356088678545
7217,Barrow,Georgia,33.99319619517074,-83.7127357002228
7220,Butts,Georgia,33.28788771010975,-83.95718929920669
7224,Chattooga,Georgia,34.47500681470066,-85.34534530177267
7228,Clinch,Georgia,30.915000693942385,-82.7062600421475
7230,Coffee,Georgia,31.54930273755232,-82.8491703423824
7270,Tattnall,Georgia,32.04580553867012,-82.05813132048327
7275,Twiggs,Georgia,32.66720571614534,-83.42707987610278
7474,Cecil,Maryland,39.57124899866323,-75.94074158319042
7482,St. Mary's,Maryland,38.30243742018832,-76.60577971883721
7662,Sullivan,New Hampshire,43.361357540002366,-72.22214702355461
7679,Salem,New Jersey,39.58768674315069,-75.34903410440246
7700,Cortland,New York,42.59502219544324,-76.07028084079919
7712,Madison,New York,42.91277593807988,-75.66965057467961
7728,St. Lawrence,New York,44.49640531862629,-75.06908479429258
7746,Cherokee,North Carolina,35.13388036757318,-84.06348032455492
7748,Cumberland,North Carolina,35.04862560945034,-78.8275617493463
7750,Davie,North Carolina,35.9291134798064,-80.54448222381262
7755,Granville,North Carolina,36.30405544749724,-78.65273153716232
7758,Henderson,North Carolina,35.33635337228796,-82.48000578554478
7762,Lee,North Carolina,35.47519509270792,-79.17148832186523
7766,Nash,North Carolina,35.96726384238835,-77.98643010025685
7772,Robeson,North Carolina,34.640166178021374,-79.10389749379209
7775,Scotland,North Carolina,34.84094636500776,-79.48039582990043
7777,Union,North Carolina,34.98841941500146,-80.53072590995508
7869,Columbia,Pennsylvania,41.04871011582185,-76.40519336079011
7871,Dauphin,Pennsylvania,40.415461566836186,-76.77946245341938
7874,Fayette,Pennsylvania,39.91989806447065,-79.64735074455726
7881,Mercer,Pennsylvania,41.30218935551655,-80.25768374014197
7889,Schuylkill,Pennsylvania,40.70582207395277,-76.21598223013665
7902,Colleton,South Carolina,32.8636220940718,-80.66689573689078
8040,Amherst,Virginia,37.60477925054989,-79.14511363796593
8042,Bedford,Virginia,37.31517160880914,-79.52420455074565
8047,Culpeper,Virginia,38.48606902683315,-77.9558939048733
8049,Fluvanna,Virginia,37.841899085945656,-78.2775770041168
8058,Lee,Virginia,36.705433563855976,-83.12848653060165
8060,Louisa,Virginia,37.97820812088423,-77.96297359815381
8068,Rockingham,Virginia,38.510634660899576,-78.87573632849809
8348,Burke,Georgia,33.06108981425818,-82.00090941431523
8351,Catoosa,Georgia,34.903634702303805,-85.13825208111508
8377,Harris,Georgia,32.736042625041364,-84.90889878901963
8384,Liberty,Georgia,31.828096321924686,-81.49473353919453
8388,Madison,Georgia,34.12779136251007,-83.20904003159454
8391,Morgan,Georgia,33.590926473090455,-83.49227740570005
8398,Pierce,Georgia,31.35877450963453,-82.21276744058004
8411,Washington,Georgia,32.969539599192565,-82.79593470901902
8612,Knox,Maine,44.155983665546565,-69.2340454591785
8627,Garrett,Maryland,39.52860387466052,-79.27382524774949
8632,Queen Anne's,Maryland,39.06808180872892,-76.02019117696584
8874,Cayuga,New York,42.91750620788728,-76.55450960138852
8900,Oswego,New York,43.42693251559956,-76.1413625458372
8901,Otsego,New York,42.63376255470059,-75.03259838395725
8920,Alamance,North Carolina,36.04373540609223,-79.39945477404711
8959,Vance,North Carolina,36.36489977965757,-78.40793059165995
9057,Cambria,Pennsylvania,40.495278105882015,-78.71372408683372
9092,Chester,South Carolina,34.69204414209376,-81.15952910386554
9101,Georgetown,South Carolina,33.434255045539096,-79.33240320037832
9112,Oconee,South Carolina,34.75347795296913,-83.06583753975688
9248,Danville city,Virginia,36.58308585104653,-79.40877664118226
9269,Rockbridge,Virginia,37.81360321551061,-79.44653628866313
9568,Baker,Georgia,31.32614484748789,-84.44470650536948
9572,Ben Hill,Georgia,31.75978063393737,-83.22049755101771
9574,Bryan,Georgia,32.01447669389111,-81.44364126036879
9577,Camden,Georgia,30.93057183931489,-81.66998613350515
9589,Colquitt,Georgia,31.188378394891487,-83.76881879206167
9592,Crisp,Georgia,31.92293498479432,-83.7680666684524
9599,Fannin,Georgia,34.864092329059154,-84.31980507560064
9606,Greene,Georgia,33.57883713279124,-83.16667649012169
9613,Irwin,Georgia,31.60224386041202,-83.2763667955238
9614,Jasper,Georgia,33.316543163235224,-83.68797352289073
9622,Macon,Georgia,32.35768119434322,-84.04255797824347
9624,Meriwether,Georgia,33.0406847645878,-84.6882961283545
9626,Mitchell,Georgia,31.22532489664376,-84.19429763004578
9637,Pulaski,Georgia,32.23226930651704,-83.47597860261324
9641,Seminole,Georgia,30.938791458641774,-84.86884301434846
9643,Stephens,Georgia,34.55396522269205,-83.29347004885125
9885,Waldo,Maine,44.50706490377882,-69.15071101467599
10160,Chemung,New York,42.141264533103175,-76.7600292212066
10186,Orleans,New York,43.25208587580208,-78.23121605526181
10233,Montgomery,North Carolina,35.33247535620867,-79.90548726278568
10241,Randolph,North Carolina,35.710347455516626,-79.806016587826
10247,Transylvania,North Carolina,35.20209524048515,-82.79825456239664
10351,Armstrong,Pennsylvania,40.81231246448679,-79.4645312707341
10354,Bradford,Pennsylvania,41.78870546516289,-76.51538866293764
10358,Carbon,Pennsylvania,40.91818469050452,-75.7088178571857
10361,Clearfield,Pennsylvania,41.00017483143101,-78.47414457652481
10369,Juniata,Pennsylvania,40.5310623665071,-77.40218380122677
10384,Somerset,Pennsylvania,39.97247637021558,-79.02826697682552
10397,Chesterfield,South Carolina,34.639800188065266,-80.15874425866845
10570,Chesapeake city,Virginia,36.67780099541548,-76.3023825377314
10579,Halifax,Virginia,36.76690108531805,-78.93662130790945
10888,Gadsden,Florida,30.579483235295708,-84.61362799096582
10946,Decatur,Georgia,30.878348705381367,-84.57905499132258
10947,Dodge,Georgia,32.172216448712106,-83.16841423784113
10967,Jackson,Georgia,34.13389132959365,-83.56636696418592
10969,Jones,Georgia,33.02513141766969,-83.56049923221796
10975,Long,Georgia,31.752560417459645,-81.74569965182158
11002,Taylor,Georgia,32.5559047345101,-84.25186653988699
11004,Thomas,Georgia,30.863761483119365,-83.91931942859034
11009,Ware,Georgia,31.05377661198473,-82.42371774318137
11011,White,Georgia,34.64638824750913,-83.74711356380494
11013,Wilkes,Georgia,33.7819533212046,-82.74320374399313
11284,Kent,Maryland,39.25454501410858,-76.03993188732531
11297,Dukes,Massachusetts,41.38787451773758,-70.62802455643315
11569,Chautauqua,New York,42.228166453837936,-79.36632968098169
11579,Franklin,New York,44.59286966654633,-74.30383648117827
11619,Bertie,North Carolina,36.06617440064496,-76.97866890713219
11622,Burke,North Carolina,35.74961351960302,-81.70476481621283
11624,Caldwell,North Carolina,35.95303725242755,-81.54641384433845
11629,Cleveland,North Carolina,35.33403266279426,-81.55559391100113
11634,Duplin,North Carolina,34.93654245085169,-77.93300985102125
11643,Hertford,North Carolina,36.35907274404734,-76.98200488193746
11648,Lenoir,North Carolina,35.23877758214694,-77.64124767614922
11650,McDowell,North Carolina,35.68171688566721,-82.04931349444809
11656,Northampton,North Carolina,36.417768874489134,-77.39686372942033
11806,Greene,Pennsylvania,39.85384297762258,-80.22292549394163
11810,Lawrence,Pennsylvania,40.99125511797685,-80.33423150822262
11814,Lycoming,Pennsylvania,41.343415183129125,-77.06453881954573
11825,Warren,Pennsylvania,41.81450489793542,-79.27410861780098
11830,Bristol,Rhode Island,41.71730749784757,-71.28408092755048
11831,Kent,Rhode Island,41.672199202057016,-71.59287750836425
11832,Newport,Rhode Island,41.55646168795559,-71.21570584938748
11833,Providence,Rhode Island,41.872148902698775,-71.58004609063214
11834,Washington,Rhode Island,41.47881337938943,-71.62396520801519
11861,Marion,South Carolina,34.08008960100697,-79.36249740413857
11871,Union,South Carolina,34.68928083514833,-81.61941228533526
11872,Williamsburg,South Carolina,33.61991956348863,-79.7277223776309
12064,Frederick,Virginia,39.20388724787189,-78.26066712409033
12065,Fredericksburg city,Virginia,38.29921006931615,-77.48707726157886
12077,Madison,Virginia,38.41371725680458,-78.27924865891552
12078,Manassas city,Virginia,38.74802321412346,-77.48392575124225
12079,Mathews,Virginia,37.43539808214683,-76.3436500631017
12081,Nelson,Virginia,37.78741903327657,-78.88675992531336
12084,Nottoway,Virginia,37.143037350251646,-78.05125005316528
12085,Orange,Virginia,38.24622588154994,-78.01350050628734
12090,Roanoke,Virginia,37.27133864917667,-80.05205402684953
12093,Shenandoah,Virginia,38.85832714062185,-78.57083503283368
12443,Washington,Florida,30.610606975008928,-85.66533680590591
12453,Calhoun,Georgia,31.52923061938197,-84.62453620996301
12482,Franklin,Georgia,34.375472152410055,-83.22915182211958
12489,Haralson,Georgia,33.79423156199698,-85.21100489989762
12508,McDuffie,Georgia,33.482864598030275,-82.48137202179238
12535,Toombs,Georgia,32.1216185740986,-82.33121944267788
12821,Franklin,Maine,44.97404177349814,-70.44400872336604
13200,Beaufort,North Carolina,35.49400950885853,-76.85978035618807
13387,Blair,Pennsylvania,40.48099343967288,-78.34861495353387
13397,Crawford,Pennsylvania,41.6847116686704,-80.1062553389755
13405,Indiana,Pennsylvania,40.65207729589542,-79.08755019409413
13424,Susquehanna,Pennsylvania,41.82138463949745,-75.8007048570849
13665,Amelia,Virginia,37.33600276068638,-77.97613562915129
13677,Fauquier,Virginia,38.73862643512856,-77.80934720148694
13684,Greene,Virginia,38.29762793580258,-78.4668521579759
13686,Hampton city,Virginia,37.0554102249493,-76.36317428952758
13692,King George,Virginia,38.2733704369719,-77.15726189861009
13696,Lynchburg city,Virginia,37.40042062845482,-79.19114521814335
13704,Northampton,Virginia,37.34299326991949,-75.87697428268483
13707,Pittsylvania,Virginia,36.82130981280499,-79.39710692826937
13708,Poquoson city,Virginia,37.1317920961857,-76.35687352516568
13711,Prince George,Virginia,37.1865562440377,-77.22415194063542
13713,Radford city,Virginia,37.12292623823628,-80.55824943467827
13719,Southampton,Virginia,36.720435199752025,-77.10609950341318
13724,Warren,Virginia,38.90891239965915,-78.2078124455805
13725,Washington,Virginia,36.72447563556909,-81.95968040865361
14067,Levy,Florida,29.318648920170407,-82.74321919123751
14088,Suwannee,Florida,30.195608825650456,-82.99149502305565
14107,Chattahoochee,Georgia,32.34699224675832,-84.7870296071805
14137,Habersham,Georgia,34.631037140902635,-83.53111212506315
14141,Hart,Georgia,34.35084143290342,-82.96422458257405
14190,Upson,Georgia,32.88126277799635,-84.29936669935499
14932,Greene,North Carolina,35.48500562383033,-77.67576393535211
14953,Person,North Carolina,36.390029415426106,-78.97180010435581
14961,Surry,North Carolina,36.41477974230201,-80.68812917416462
15141,Northumberland,Pennsylvania,40.85202943395311,-76.70933788835569
15412,Bristol city,Virginia,36.617987925388576,-82.16077676206163
15425,Galax city,Virginia,36.66601876557565,-80.91759862152321
15460,Roanoke city,Virginia,37.27840843976398,-79.95807080329016
15820,Hendry,Florida,26.553476824050563,-81.16584288904453
15861,Bulloch,Georgia,32.39681406656517,-81.74318755966645
15911,Jenkins,Georgia,32.79245352251672,-81.9635528291689
15929,Murray,Georgia,34.78844132691178,-84.74807543208858
15937,Pike,Georgia,33.092301301124905,-84.389254962442
15957,Walton,Georgia,33.78156414591867,-83.73387416347086
15960,Wheeler,Georgia,32.117058711536835,-82.72458382460536
16665,Cattaraugus,New York,42.2486145592818,-78.67883816739399
16704,Schuyler,New York,42.39381237800328,-76.87517410616964
16736,Edgecombe,North Carolina,35.912888306183895,-77.59706130553876
16762,Perquimans,North Carolina,36.20585489110773,-76.44114482193804
16765,Polk,North Carolina,35.27931471455979,-82.16962945554675
16937,Cameron,Pennsylvania,41.4367375995021,-78.20388323383018
16941,Clarion,Pennsylvania,41.19240789008971,-79.4209730679046
16952,Huntingdon,Pennsylvania,40.41696127013368,-77.98120964183389
16962,McKean,Pennsylvania,41.80771752295646,-78.56902417367505
16969,Perry,Pennsylvania,40.398404562529855,-77.2623109412753
16974,Snyder,Pennsylvania,40.769844736615,-77.07016916396209
16977,Tioga,Pennsylvania,41.77218681055959,-77.2542684055356
17012,Laurens,South Carolina,34.48357484613627,-82.00594670352233
17284,Hopewell city,Virginia,37.291385074007366,-77.2985473136408
17288,Lancaster,Virginia,37.73452861926576,-76.46322184654943
17297,Montgomery,Virginia,37.17425031755612,-80.38700053637996
17299,New Kent,Virginia,37.505151341352445,-76.99712303668598
17303,Northumberland,Virginia,37.88764355215437,-76.41965927256005
17309,Powhatan,Virginia,37.55020332299951,-77.91520601451066
17688,Glades,Florida,26.956472662531336,-81.18899774098998
17721,Wakulla,Florida,30.167330125750578,-84.40066586581689
17724,Bacon,Georgia,31.553674623695752,-82.45271259702616
17731,Brooks,Georgia,30.84222225745287,-83.58048573511287
17738,Candler,Georgia,32.40344756595074,-82.07366512819887
18201,Somerset,Maine,45.51391997446941,-69.95890341895614
18586,Lewis,New York,43.784665361117234,-75.44885062528843
18621,Alleghany,North Carolina,36.49129595819397,-81.1279191895704
18630,Caswell,North Carolina,36.39317946896443,-79.33353648437458
18635,Columbus,North Carolina,34.26558860223236,-78.65502325203845
18638,Currituck,North Carolina,36.40308782830925,-76.00593716636858
18650,Halifax,North Carolina,36.257452803144936,-77.65171204544302
18669,Pamlico,North Carolina,35.14345700148333,-76.74070224379929
18686,Washington,North Carolina,35.822594857238784,-76.57748206160004
18690,Yadkin,North Carolina,36.1605406192721,-80.66523751958651
18879,Mifflin,Pennsylvania,40.610431693487136,-77.61703630641131
18894,Venango,Pennsylvania,41.40100234340653,-79.7579591545302
19193,Alleghany,Virginia,37.78751120250003,-80.00679403558034
19216,Greensville,Virginia,36.67634148663669,-77.55902925824297
19232,Manassas Park city,Virginia,38.77173559963697,-77.44475871164174
19263,Tazewell,Virginia,37.12495205908805,-81.56066247089556
19268,Winchester city,Virginia,39.17339327257075,-78.1745250336624
19269,Wythe,Virginia,36.91712686062795,-81.07864275101622
19649,Holmes,Florida,30.86791949215165,-85.8140298261751
19681,Appling,Georgia,31.74922887855687,-82.28891516620772
19685,Banks,Georgia,34.354153170410044,-83.49736718846856
19689,Berrien,Georgia,31.275988464234462,-83.22964337452977
19691,Bleckley,Georgia,32.43443281931353,-83.32785677113421
19708,Clay,Georgia,31.626242658418764,-84.9800933637315
19715,Cook,Georgia,31.153999866822936,-83.43046693897294
19718,Dade,Georgia,34.85456014562745,-85.50452190403846
19723,Dooly,Georgia,32.15720517056815,-83.79876478008381
19734,Gilmer,Georgia,34.69119590354405,-84.45563858500478
19750,Jefferson,Georgia,33.05486677794732,-82.4181872593966
19752,Johnson,Georgia,32.701466982642486,-82.6600831563623
19765,McIntosh,Georgia,31.49674012077352,-81.40852496952006
19785,Schley,Georgia,32.2616686710521,-84.31476109063382
19790,Talbot,Georgia,32.69950624139158,-84.53301321561231
19803,Warren,Georgia,33.40895240539155,-82.67675465477022
20634,Alexander,North Carolina,35.921032881232726,-81.177026189698
20692,Rutherford,North Carolina,35.40256718672112,-81.91982549896552
20918,Union,Pennsylvania,40.96300477879911,-77.0622098828558
20933,Barnwell,South Carolina,33.26605667769886,-81.43500436798794
21259,Henry,Virginia,36.682776904344685,-79.8736744394452
21264,King William,Virginia,37.70662619404413,-77.08840032037992
21284,Petersburg city,Virginia,37.20418799446859,-77.39142838078627
21299,Smyth,Virginia,36.84387494546699,-81.53706865603864
21685,Calhoun,Florida,30.406027748300488,-85.19720185225934
21729,Union,Florida,30.04386080568127,-82.3714363676275
21781,Emanuel,Georgia,32.58974931741434,-82.3017161971994
21791,Grady,Georgia,30.8746717142236,-84.23444473157113
21830,Oglethorpe,Georgia,33.88067419624117,-83.08071621101456
21838,Rabun,Georgia,34.881742053035715,-83.40207685095386
21843,Screven,Georgia,32.75061321074323,-81.61194474084184
21847,Stewart,Georgia,32.07849576755027,-84.83522129591877
21860,Walker,Georgia,34.73565160782996,-85.30099464099028
21865,Webster,Georgia,32.04666296299908,-84.55104925870808
21869,Wilcox,Georgia,31.97288294929412,-83.43232350783266
21871,Wilkinson,Georgia,32.8023869295543,-83.17124290918342
22718,Seneca,New York,42.78106207039031,-76.82378508207462
22734,Anson,North Carolina,34.97382062791041,-80.10269568884274
22747,Clay,North Carolina,35.05722416552835,-83.75017713745379
22774,Martin,North Carolina,35.84321791142062,-77.10924571790211
22792,Rockingham,North Carolina,36.39602353433114,-79.77499960217796
22806,Wilkes,North Carolina,36.20628294600986,-81.16339870413358
22979,Bedford,Pennsylvania,40.00655224828496,-78.49029987047572
23043,Bamberg,South Carolina,33.21480452788514,-81.05424508460322
23349,Brunswick,Virginia,36.76478366548346,-77.85902965703201
23350,Buckingham,Virginia,37.57221686722679,-78.52880133258928
23351,Campbell,Virginia,37.20562326224492,-79.09640831137453
23352,Carroll,Virginia,36.73157412185298,-80.73385877357939
23357,Clarke,Virginia,39.11235184359435,-77.996693819548
23364,Franklin city,Virginia,36.68309742362765,-76.93862236808656
23383,King and Queen,Virginia,37.71863969822415,-76.89527185589337
23403,Page,Virginia,38.619991115433656,-78.48413239219848
23424,Surry,Virginia,37.10984273883928,-76.9001971308968
23429,Waynesboro city,Virginia,38.06730757792496,-78.90122104676394
23828,Gulf,Florida,29.95553939781936,-85.22659645838952
23829,Hardee,Florida,27.49270080047591,-81.80993935295679
23841,Madison,Florida,30.44410873895488,-83.47013134843723
23849,Okeechobee,Florida,27.38643685392861,-80.88862693585939
23945,Lanier,Georgia,31.03787882905056,-83.06276048099035
23974,Putnam,Georgia,33.32177304561034,-83.37279764705015
23996,Union,Georgia,34.834084875813666,-83.99076626940068
24416,Hancock,Maine,44.68901812467743,-68.34842460911652
24434,Dorchester,Maryland,38.487086507046826,-76.01185318424542
25207,Allendale,South Carolina,32.98815924435532,-81.3583036596758
25529,Augusta,Virginia,38.16296772636075,-79.12885341030622
25609,Sussex,Virginia,36.921785509926174,-77.26181241413072
26185,Telfair,Georgia,31.92981113773184,-82.93901577075138
26643,Allegany,Maryland,39.62146462751047,-78.69898092796342
27120,Yates,New York,42.6334579334488,-77.1054705239338
27143,Dare,North Carolina,35.780520968744064,-75.85890750428253
27152,Gates,North Carolina,36.44491371660416,-76.70046921184408
27166,Macon,North Carolina,35.15050412354411,-83.4221613511451
27170,Mitchell,North Carolina,36.013307008649,-82.16364486297087
27192,Stokes,North Carolina,36.40189895470232,-80.23950226413483
27404,Forest,Pennsylvania,41.51300140851586,-79.23602459859498
27456,Cherokee,South Carolina,35.04820031262325,-81.62035636659124
27470,Hampton,South Carolina,32.776297758712694,-81.14069852504952
27480,McCormick,South Carolina,33.89958335876763,-82.30987735955502
27800,Cumberland,Virginia,37.51211849419954,-78.24496732762859
27860,Salem city,Virginia,37.28640126631185,-80.05538410160334
28294,Franklin,Florida,29.889699642674227,-84.80189255625498
28385,Elbert,Georgia,34.116799315377754,-82.84015006329238
28425,Marion,Georgia,32.35340039677844,-84.52467334937853
28446,Quitman,Georgia,31.86735338809789,-85.01877431591618
28466,Towns,Georgia,34.91664325538228,-83.73732689192994
28917,Aroostook,Maine,46.65892566960527,-68.59890430277589
28929,Washington,Maine,45.03538325236746,-67.62921743798537
29309,Coos,New Hampshire,44.689579355147536,-71.30563561742224
29422,Bladen,North Carolina,34.61459428481144,-78.56364126801505
29433,Chowan,North Carolina,36.150843443196806,-76.6078981630252
29455,Haywood,North Carolina,35.55604624718304,-82.98219442536671
29701,Clinton,Pennsylvania,41.2340613684867,-77.63816211634854
30105,Buena Vista city,Virginia,37.73159104859526,-79.3565571509166
30107,Caroline,Virginia,38.026839587488624,-77.34697572159804
30117,Emporia city,Virginia,36.6952784727618,-77.5356657363546
30144,Lexington city,Virginia,37.78248529655036,-79.44396447150864
30171,Pulaski,Virginia,37.06362615151246,-80.71434296012207
30173,Richmond,Virginia,37.9433915143124,-76.72686745802892
30193,Westmoreland,Virginia,38.11196502470274,-76.80422858609906
30196,Wise,Virginia,36.97446699364266,-82.62134232385425
30619,Dixie,Florida,29.60816200914384,-83.1588449977868
30635,Jefferson,Florida,30.437508945770656,-83.89528595074843
30807,Wayne,Georgia,31.55146885031684,-81.91674197110339
31775,Ashe,North Carolina,36.434480522101566,-81.50051128178396
31852,Warren,North Carolina,36.39651321391636,-78.1066685576237
32096,Sullivan,Pennsylvania,41.44616674571222,-76.51223732068111
32105,Wyoming,Pennsylvania,41.5183719977611,-76.0165984417956
32478,Charlotte,Virginia,37.01162627681981,-78.66165071714846
32554,Staunton city,Virginia,38.159313336157965,-79.06080958144067
33080,Crawford,Georgia,32.71450966714721,-83.98633625371562
34235,Pender,North Carolina,34.5248168003333,-77.90510569744636
34475,Fulton,Pennsylvania,39.92536389919356,-78.1126877216748
35418,Hamilton,Florida,30.496393543042497,-82.94793846231956
35461,Atkinson,Georgia,31.297139876841317,-82.88007269196125
35472,Brantley,Georgia,31.196881797349477,-81.98190817983827
35509,Echols,Georgia,30.710056215206748,-82.89396506861438
35536,Jeff Davis,Georgia,31.80561755311721,-82.63683174552507
35594,Treutlen,Georgia,32.40388088820854,-82.56728824772603
37326,Appomattox,Virginia,37.37222987962482,-78.81214753513164
37356,Giles,Virginia,37.3140311891102,-80.70372695856965
37410,Russell,Virginia,36.933774329452746,-82.09563546211027
37876,Gilchrist,Florida,29.725839379635143,-82.80038898344185
37916,Taylor,Florida,30.047002021575924,-83.60352956821059
37989,Hancock,Georgia,33.270455726299296,-83.00067636000456
39169,Richmond,North Carolina,35.00594265774614,-79.74782722277567
39411,Elk,Pennsylvania,41.42524606019715,-78.64914914482087
39420,Jefferson,Pennsylvania,41.12816551467946,-78.99943774120037
39836,Buchanan,Virginia,37.26663304416514,-82.03606651493152
39848,Craig,Virginia,37.48122271635433,-80.21238264481451
39852,Dinwiddie,Virginia,37.075910136519255,-77.6323401867102
39884,Lunenburg,Virginia,36.946228915364856,-78.24056251351749
39911,Rappahannock,Virginia,38.68473861434207,-78.15926272755836
40405,Lafayette,Florida,29.9855094897978,-83.18109609236402
44229,Jones,North Carolina,35.021720737207545,-77.35517080576427
44962,Floyd,Virginia,36.93164409920147,-80.36255421238766
44998,Middlesex,Virginia,37.630304559436446,-76.56984056496034
45527,Liberty,Florida,30.24138012718721,-84.8829027573244
47550,Colonial Heights city,Virginia,37.26502624319059,-77.39693904503049
47558,Fairfax city,Virginia,38.85297895960922,-77.29994546288376
47626,Scott,Virginia,36.71423385463685,-82.60300307687615
48260,Montgomery,Georgia,32.17339974133578,-82.53477727502091
50847,Evans,Georgia,32.15676591103119,-81.88688279329676
54741,Jackson,North Carolina,35.28742633717619,-83.14081185093781
55499,Falls Church city,Virginia,38.88465008606978,-77.17508447587971
57448,Tyrrell,North Carolina,35.817212583925475,-76.20895445228312
63571,Essex,Virginia,37.9434244513233,-76.95145445088194
70350,Piscataquis,Maine,45.837354966772544,-69.2845943387941
77319,Norton city,Virginia,36.93172367887015,-82.62596867967427
77323,Patrick,Virginia,36.67831945146621,-80.28440012144469
80058,Highland,Virginia,38.36232905286453,-79.56855450081991
87592,Madison,North Carolina,35.85802022312944,-82.7057734430354
93145,Camden,North Carolina,36.38771296581269,-76.20636491832425
95978,Graham,North Carolina,35.3501736703952,-83.83349107624373
96814,Grayson,Virginia,36.65661989966037,-81.22508342409327
96840,Martinsville city,Virginia,36.68265943005392,-79.86362439544273
98810,Hyde,North Carolina,35.53585736325411,-76.25493970348349
98849,Swain,North Carolina,35.486791720753246,-83.4926418602753
108895,Taliaferro,Georgia,33.56614323559654,-82.87876779801034
110214,Yancey,North Carolina,35.89894582749264,-82.30762797345722
120413,Glascock,Georgia,33.229289270903166,-82.61070428291934
128581,Covington city,Virginia,37.7785472215057,-79.98677971717566
157400,Avery,North Carolina,36.076550620444266,-81.92258699293184
243755,Dickenson,Virginia,37.125756082636514,-82.35040070659508
253004,Bland,Virginia,37.13398038004761,-81.1302947891523
312355,Bath,Virginia,38.058718479060296,-79.74109868517576
